time,x,y,z,yaw,throttle,roll_rate,pitch_rate,yaw_rate,x_ref,y_ref,z_ref,yaw_ref,pred_time,nr_time,ctrl_callback_time,v_norm,metadata
7.152557373046875e-07,-0.20308443903923035,0.2028765231370926,-0.08638054877519608,1.5940395073317284,0.7309268168737847,-0.11900585889816284,0.12424083054065704,-0.5985594391822815,0.0,0.0,-0.9,0.0,0.3766648769378662,0.3766648769378662,0.44394540786743164,0,Sim
0.4443023204803467,-0.20308443903923035,0.2028765231370926,-0.08638054877519608,1.5940395073317284,0.7532330426091104,-0.21132203936576843,0.16635315120220184,-0.6589916348457336,0.0,0.0,-0.9,0.0,0.00019502639770507812,0.00019502639770507812,0.001384735107421875,0,jax_reg_wardi
0.44984889030456543,-0.20317353308200836,0.2138163298368454,-0.04966675862669945,1.594000400139039,0.7720135105031344,-0.2711503505706787,0.18648521602153778,-0.7012941241264343,0.0,0.0,-0.9,0.0,0.0003859996795654297,0.0003859996795654297,0.001992940902709961,0,1x Speed
0.4597749710083008,-0.2033582627773285,0.2137976884841919,-0.04959609732031822,1.593983704062642,0.7868086039275892,-0.3105281591415405,0.19219261407852173,-0.7309058904647827,0.0,0.0,-0.9,0.0,0.00022912025451660156,0.00022912025451660156,0.001463174819946289,0,fig8_vert_ref_func_tall
0.46976208686828613,-0.20353560149669647,0.2137804627418518,-0.04947437718510628,1.5939703491373232,0.7984910962274473,-0.33672717213630676,0.19136658310890198,-0.7516341209411621,0.0,0.0,-0.9,0.0,0.0002484321594238281,0.0002484321594238281,0.0018703937530517578,0,0
0.47972559928894043,-0.20386850833892822,0.2137499749660492,-0.04916735738515854,1.5939430461507433,0.8077427017057202,-0.3543246388435364,0.18775850534439087,-0.7661438584327698,0.0,0.0,-0.9,0.0,0.00023698806762695312,0.00023698806762695312,0.001856088638305664,0,0
0.4897451400756836,-0.20402175188064575,0.21374791860580444,-0.048941660672426224,1.5939050060307227,0.8150736650674633,-0.3658924400806427,0.1833278387784958,-0.7763007283210754,0.0,0.0,-0.9,0.0,0.0002357959747314453,0.0002357959747314453,0.0015997886657714844,0,0
0.49982357025146484,-0.20415733754634857,0.21374371647834778,-0.04868471994996071,1.593761542959553,0.8208139062807425,-0.37296807765960693,0.17857979238033295,-0.7834104895591736,0.0,0.0,-0.9,0.0,0.0002334117889404297,0.0002334117889404297,0.0016584396362304688,0,0
0.5097746849060059,-0.2042752057313919,0.2137330025434494,-0.048435602337121964,1.5934716338222834,0.8251900142673396,-0.37660977244377136,0.1737947314977646,-0.7883873581886292,0.0,0.0,-0.9,0.0,0.00023674964904785156,0.00023674964904785156,0.0016067028045654297,0,0
0.519986629486084,-0.2043800801038742,0.21371735632419586,-0.04823051393032074,1.5930238386303286,0.8284180093039988,-0.37771427631378174,0.16941571235656738,-0.7918711304664612,0.0,0.0,-0.9,0.0,0.00025343894958496094,0.00025343894958496094,0.0016942024230957031,0,0
0.5297508239746094,-0.2045719176530838,0.21368788182735443,-0.048129450529813766,1.5916500999552938,0.8303321315530277,-0.373647004365921,0.16447685658931732,-0.7943097949028015,0.0,0.0,-0.9,0.0,0.0002396106719970703,0.0002396106719970703,0.0016698837280273438,0,0
0.5400795936584473,-0.20465773344039917,0.21367330849170685,-0.048218775540590286,1.5907293351397362,0.83148003870185,-0.36719754338264465,0.16028855741024017,-0.7960168719291687,0.0,0.0,-0.9,0.0,0.00024509429931640625,0.00024509429931640625,0.001561880111694336,0,0
0.549858808517456,-0.20480145514011383,0.21363988518714905,-0.048722680658102036,1.5884176927893878,0.831583698601473,-0.35440996289253235,0.15582264959812164,-0.7972118258476257,0.0,0.0,-0.9,0.0,0.0002727508544921875,0.0002727508544921875,0.0020303726196289062,0,0
0.5597760677337646,-0.20486316084861755,0.21362963318824768,-0.04914833605289459,1.5870325493190358,0.8312419127165614,-0.3405553698539734,0.1527702510356903,-0.7980482578277588,0.0,0.0,-0.9,0.0,0.00024199485778808594,0.00024199485778808594,0.0014688968658447266,0,0
0.5697832107543945,-0.20490989089012146,0.21361538767814636,-0.049741484224796295,1.5854944907890862,0.8305334155740997,-0.3257349729537964,0.15081994235515594,-0.7986337542533875,0.0,0.0,-0.9,0.0,0.0002570152282714844,0.0002570152282714844,0.0016984939575195312,0,0
0.5797834396362305,-0.20545318722724915,0.21342481672763824,-0.05070259049534798,1.5838113850209519,0.8295188943749341,-0.31034886837005615,0.14956651628017426,-0.7990436553955078,0.0,0.0,-0.9,0.0,0.00030922889709472656,0.00030922889709472656,0.0019342899322509766,0,0
0.5897543430328369,-0.20596790313720703,0.21323129534721375,-0.05178279057145119,1.5820055206083332,0.8282535685360978,-0.29435452818870544,0.14883892238140106,-0.7993305325508118,0.0,0.0,-0.9,0.0,0.00024771690368652344,0.00024771690368652344,0.0014939308166503906,0,0
0.6000046730041504,-0.2069026529788971,0.21283088624477386,-0.054306477308273315,1.5779791094497884,0.826313223213401,-0.2723654806613922,0.1473284661769867,-0.7995314002037048,0.0,0.0,-0.9,0.0,0.0002593994140625,0.0002593994140625,0.0017209053039550781,0,0
0.6097168922424316,-0.20731808245182037,0.2126217633485794,-0.05575135350227356,1.5757646152747635,0.8243003773124838,-0.2510708272457123,0.14692874252796173,-0.79967200756073,0.0,0.0,-0.9,0.0,0.0002300739288330078,0.0002300739288330078,0.0016639232635498047,0,0
0.6198172569274902,-0.20769590139389038,0.21240533888339996,-0.0573183111846447,1.573420275043301,0.822228415307184,-0.23023149371147156,0.1472141295671463,-0.7997704148292542,0.0,0.0,-0.9,0.0,0.0002739429473876953,0.0002739429473876953,0.0017812252044677734,0,0
0.6296706199645996,-0.208029642701149,0.2121887058019638,-0.0590522438287735,1.5709489253898408,0.8201090967923315,-0.20966139435768127,0.1479242891073227,-0.7998393177986145,0.0,0.0,-0.9,0.0,0.0002319812774658203,0.0002319812774658203,0.0014829635620117188,0,0
0.6399936676025391,-0.20856806635856628,0.21172510087490082,-0.06287430971860886,1.5656290710870786,0.8174886239076754,-0.18350930511951447,0.1475861817598343,-0.7998875379562378,0.0,0.0,-0.9,0.0,0.00040984153747558594,0.00040984153747558594,0.002168416976928711,0,0
0.6498069763183594,-0.20876850187778473,0.21147605776786804,-0.06495948880910873,1.562792592296639,0.8149419380485299,-0.1589847356081009,0.14815975725650787,-0.7999212741851807,0.0,0.0,-0.9,0.0,0.0005133152008056641,0.0005133152008056641,0.002870321273803711,0,0
0.6597559452056885,-0.20892032980918884,0.21121405065059662,-0.06715867668390274,1.5598439756442268,0.8124566770537657,-0.13569502532482147,0.1491851657629013,-0.7999449372291565,0.0,0.0,-0.9,0.0,0.00023889541625976562,0.00023889541625976562,0.001390218734741211,0,0
0.6697533130645752,-0.20902158319950104,0.21093806624412537,-0.06946972757577896,1.5567846014352864,0.8100249653168862,-0.11333823204040527,0.15038399398326874,-0.7999614477157593,0.0,0.0,-0.9,0.0,0.00023937225341796875,0.00023937225341796875,0.001562356948852539,0,0
0.6796607971191406,-0.2090652585029602,0.21034012734889984,-0.07451068609952927,1.5503511634520517,0.8071943700222131,-0.08609572798013687,0.15006668865680695,-0.7999730110168457,0.0,0.0,-0.9,0.0,0.00024318695068359375,0.00024318695068359375,0.00183868408203125,0,0
0.689716100692749,-0.2090042680501938,0.2100161463022232,-0.07718713581562042,1.546981965931159,0.8045039040822323,-0.06095254048705101,0.15042488276958466,-0.7999811172485352,0.0,0.0,-0.9,0.0,0.0002257823944091797,0.0002257823944091797,0.0015368461608886719,0,0
0.6997826099395752,-0.20889636874198914,0.20966336131095886,-0.07996425032615662,1.543515216271321,0.80192987532291,-0.0374605730175972,0.1510058492422104,-0.7999867796897888,0.0,0.0,-0.9,0.0,0.0003077983856201172,0.0003077983856201172,0.0017518997192382812,0,0
0.7098009586334229,-0.20850816369056702,0.20923736691474915,-0.08393440395593643,1.539951597578661,0.79941890962999,-0.015203394927084446,0.1515333354473114,-0.7999907732009888,0.0,0.0,-0.9,0.0,0.00022101402282714844,0.00022101402282714844,0.0014123916625976562,0,0
0.7198002338409424,-0.2080661952495575,0.20879106223583221,-0.0879729762673378,1.5362990718368938,0.7969648125762794,0.006082217674702406,0.15184751152992249,-0.7999935746192932,0.0,0.0,-0.9,0.0,0.0003428459167480469,0.0003428459167480469,0.0018544197082519531,0,0
0.7297103404998779,-0.20701585710048676,0.20783349871635437,-0.0963311418890953,1.5287336389622421,0.7941206224553821,0.03169819340109825,0.15001071989536285,-0.799995481967926,0.0,0.0,-0.9,0.0,0.0002586841583251953,0.0002586841583251953,0.001577615737915039,0,0
0.7398271560668945,-0.20640544593334198,0.20732025802135468,-0.10060319304466248,1.52482600876334,0.7914225989955607,0.05521035194396973,0.1486852914094925,-0.7999968528747559,0.0,0.0,-0.9,0.0,0.00026297569274902344,0.00026297569274902344,0.001708984375,0,0
0.7497093677520752,-0.2057369202375412,0.206782728433609,-0.1049344390630722,1.5208378149401007,0.7888480255364243,0.07703857868909836,0.14748398959636688,-0.7999978065490723,0.0,0.0,-0.9,0.0,0.00024700164794921875,0.00024700164794921875,0.001741647720336914,0,0
0.7597460746765137,-0.20422250032424927,0.2056308388710022,-0.1137666404247284,1.512629675118327,0.7859674443793067,0.10206252336502075,0.1440996676683426,-0.7999984622001648,0.0,0.0,-0.9,0.0,0.00022363662719726562,0.00022363662719726562,0.0014374256134033203,0,0
0.769775390625,-0.20337489247322083,0.20500950515270233,-0.11830706149339676,1.5084141100512745,0.7832693530288481,0.12469708919525146,0.14131855964660645,-0.799998939037323,0.0,0.0,-0.9,0.0,0.00025534629821777344,0.00025534629821777344,0.0016295909881591797,0,0
0.779719352722168,-0.2024669498205185,0.20436008274555206,-0.12289709597826004,1.5041231121105891,0.7807232823083536,0.14540158212184906,0.138713538646698,-0.7999992370605469,0.0,0.0,-0.9,0.0,0.00023126602172851562,0.00023126602172851562,0.0017786026000976562,0,0
0.7898573875427246,-0.20149853825569153,0.20368172228336334,-0.1275344341993332,1.4997644317738221,0.7783064314349519,0.16453680396080017,0.13602520525455475,-0.799999475479126,0.0,0.0,-0.9,0.0,0.00023293495178222656,0.00023293495178222656,0.0014758110046386719,0,0
0.7997241020202637,-0.1993800550699234,0.20223468542099,-0.13694250583648682,1.4908541470284005,0.7756271680915343,0.18613994121551514,0.13077862560749054,-0.7999995946884155,0.0,0.0,-0.9,0.0,0.00025081634521484375,0.00025081634521484375,0.0017099380493164062,0,0
0.8097734451293945,-0.19823002815246582,0.20146436989307404,-0.14170905947685242,1.486307698705852,0.7731278185351786,0.20559151470661163,0.1261102259159088,-0.7999997138977051,0.0,0.0,-0.9,0.0,0.00021982192993164062,0.00021982192993164062,0.0013697147369384766,0,0
0.8197736740112305,-0.19701996445655823,0.20066174864768982,-0.14651431143283844,1.4817025610539643,0.7707788898451777,0.223253533244133,0.12164146453142166,-0.7999998331069946,0.0,0.0,-0.9,0.0,0.00026702880859375,0.00026702880859375,0.0015835762023925781,0,0
0.8300745487213135,-0.19564661383628845,0.20020394027233124,-0.15238972008228302,1.4770399859410184,0.768524647030814,0.23942968249320984,0.1173887550830841,-0.7999998927116394,0.0,0.0,-0.9,0.0,0.0002903938293457031,0.0002903938293457031,0.0017137527465820312,0,0
0.8398435115814209,-0.19421613216400146,0.1997029334306717,-0.158273845911026,1.4723252174453856,0.7663535291669331,0.25432267785072327,0.11314647644758224,-0.7999999523162842,0.0,0.0,-0.9,0.0,0.00022912025451660156,0.00022912025451660156,0.0014061927795410156,0,0
0.8503532409667969,-0.19124770164489746,0.19856339693069458,-0.17006371915340424,1.4626736095962782,0.7638989741283411,0.27069389820098877,0.10642978549003601,-0.7999999523162842,0.0,0.0,-0.9,0.0,0.00023436546325683594,0.00023436546325683594,0.0013968944549560547,0,0
0.8597121238708496,-0.18968036770820618,0.1979270726442337,-0.17596708238124847,1.4577401216725794,0.7615913692116467,0.2853202521800995,0.1002921387553215,-0.800000011920929,0.0,0.0,-0.9,0.0,0.00021529197692871094,0.00021529197692871094,0.0013427734375,0,0
0.8699014186859131,-0.18968036770820618,0.1979270726442337,-0.17596708238124847,1.4577401216725794,0.759749018609501,0.29619646072387695,0.09682678431272507,-0.800000011920929,0.0,0.0,-0.9,0.0,0.00024580955505371094,0.00024580955505371094,0.00173187255859375,0,0
0.8796529769897461,-0.18638433516025543,0.19651977717876434,-0.18782441318035126,1.4477335531981854,0.757603346541978,0.3085285425186157,0.0901588425040245,-0.800000011920929,0.0,0.0,-0.9,0.0,0.00022935867309570312,0.00022935867309570312,0.0014574527740478516,0,0
0.8900449275970459,-0.18638433516025543,0.19651977717876434,-0.18782441318035126,1.4477335531981854,0.7558901433595319,0.31778430938720703,0.08615525811910629,-0.800000011920929,0.0,0.0,-0.9,0.0,0.00040912628173828125,0.00040912628173828125,0.002702951431274414,0,0
0.899714469909668,-0.18105445802211761,0.1940673142671585,-0.20566511154174805,1.4323948219712175,0.7535720898084708,0.32970869541168213,0.07640819251537323,-0.800000011920929,0.0,0.0,-0.9,0.0,0.0002186298370361328,0.0002186298370361328,0.0015168190002441406,0,0
0.9098608493804932,-0.18105445802211761,0.1940673142671585,-0.20566511154174805,1.4323948219712175,0.7517221524652274,0.3388789892196655,0.07015079259872437,-0.800000011920929,0.0,0.0,-0.9,0.0,0.0002288818359375,0.0002288818359375,0.0015087127685546875,0,0
0.9196765422821045,-0.1753099113702774,0.19119082391262054,-0.223504438996315,1.4166725399918252,0.7493610466109215,0.34911268949508667,0.05866621807217598,-0.800000011920929,0.0,0.0,-0.9,0.0,0.00024962425231933594,0.00024962425231933594,0.0015583038330078125,0,0
0.9297699928283691,-0.1753099113702774,0.19119082391262054,-0.223504438996315,1.4166725399918252,0.7474769539639411,0.3571755886077881,0.05103713646531105,-0.800000011920929,0.0,0.0,-0.9,0.0,0.00030159950256347656,0.00030159950256347656,0.0016632080078125,0,0
0.9398071765899658,-0.17126229405403137,0.18904219567775726,-0.23541055619716644,1.4059983313700901,0.7454167980942891,0.364717960357666,0.04098501801490784,-0.800000011920929,0.0,0.0,-0.9,0.0,0.00023603439331054688,0.00023603439331054688,0.0014002323150634766,0,0
0.9497640132904053,-0.17126229405403137,0.18904219567775726,-0.23541055619716644,1.4059983313700901,0.743772481181983,0.37074047327041626,0.03422198072075844,-0.800000011920929,0.0,0.0,-0.9,0.0,0.00023555755615234375,0.00023555755615234375,0.0017783641815185547,0,0
0.9596865177154541,-0.1644240915775299,0.185126394033432,-0.2556232511997223,1.3897653993678554,0.7415954342794405,0.3765481412410736,0.022180568426847458,-0.800000011920929,0.0,0.0,-0.9,0.0,0.00040912628173828125,0.00040912628173828125,0.0015311241149902344,0,0
0.9699738025665283,-0.1644240915775299,0.185126394033432,-0.2556232511997223,1.3897653993678554,0.7398582469679035,0.3814469873905182,0.013868323527276516,-0.800000011920929,0.0,0.0,-0.9,0.0,0.0002689361572265625,0.0002689361572265625,0.0017201900482177734,0,0
0.9796562194824219,-0.1595466583967209,0.18219536542892456,-0.2697944939136505,1.3788237869820739,0.7379036340773323,0.38549357652664185,0.003272664500400424,-0.800000011920929,0.0,0.0,-0.9,0.0,0.0001926422119140625,0.0001926422119140625,0.0013127326965332031,0,0
0.9898943901062012,-0.1595466583967209,0.18219536542892456,-0.2697944939136505,1.3788237869820739,0.7363436046267108,0.38902756571769714,-0.004103760235011578,-0.800000011920929,0.0,0.0,-0.9,0.0,0.00027823448181152344,0.00027823448181152344,0.0016179084777832031,0,0
0.9998364448547363,-0.15203236043453217,0.1775013655424118,-0.2907017469406128,1.3622081541692184,0.7343044633106071,0.39085298776626587,-0.016310909762978554,-0.800000011920929,0.0,0.0,-0.9,0.0,0.0002796649932861328,0.0002796649932861328,0.001699686050415039,0,0
1.00990891456604,-0.15203236043453217,0.1775013655424118,-0.2907017469406128,1.3622081541692184,0.7326774585636385,0.39288631081581116,-0.024983977898955345,-0.800000011920929,0.0,0.0,-0.9,0.0,0.0002524852752685547,0.0002524852752685547,0.0015735626220703125,0,0
1.0198769569396973,-0.14691586792469025,0.17417022585868835,-0.304402619600296,1.3510015749923305,0.7308864242482243,0.39330729842185974,-0.03562108799815178,-0.800000011920929,0.0,0.0,-0.9,0.0,0.0002288818359375,0.0002288818359375,0.0016067028045654297,0,0
1.029689073562622,-0.14691586792469025,0.17417022585868835,-0.304402619600296,1.3510015749923305,0.7294573527312903,0.3942316472530365,-0.0432380810379982,-0.800000011920929,0.0,0.0,-0.9,0.0,0.00023937225341796875,0.00023937225341796875,0.0018389225006103516,0,0
1.0399038791656494,-0.13911902904510498,0.16887912154197693,-0.3247017562389374,1.334011535305016,0.7276277846955115,0.391947865486145,-0.055050142109394073,-0.800000011920929,0.0,0.0,-0.9,0.0,0.00022554397583007812,0.00022554397583007812,0.001321554183959961,0,0
1.0500295162200928,-0.13911902904510498,0.16887912154197693,-0.3247017562389374,1.334011535305016,0.7261687932862146,0.390998899936676,-0.06366433948278427,-0.800000011920929,0.0,0.0,-0.9,0.0,0.0002472400665283203,0.0002472400665283203,0.0020596981048583984,0,0
1.0595779418945312,-0.13381925225257874,0.1651826798915863,-0.3379816710948944,1.3226931162365085,0.7245817500405888,0.3878980278968811,-0.07380637526512146,-0.800000011920929,0.0,0.0,-0.9,0.0,0.0002193450927734375,0.0002193450927734375,0.0013356208801269531,0,0
1.0699396133422852,-0.13381925225257874,0.1651826798915863,-0.3379816710948944,1.3226931162365085,0.7233162363272085,0.3862631916999817,-0.08125445991754532,-0.800000011920929,0.0,0.0,-0.9,0.0,0.00024771690368652344,0.00024771690368652344,0.0016710758209228516,0,0
1.0797526836395264,-0.12538428604602814,0.15926387906074524,-0.3585725426673889,1.3057299424312698,0.72168652781946,0.3805587589740753,-0.0920349732041359,-0.800000011920929,0.0,0.0,-0.9,0.0,0.0002143383026123047,0.0002143383026123047,0.0019276142120361328,0,0
1.089998722076416,-0.12538428604602814,0.15926387906074524,-0.3585725426673889,1.3057299424312698,0.7203876751268268,0.37709251046180725,-0.10008085519075394,-0.800000011920929,0.0,0.0,-0.9,0.0,0.0003917217254638672,0.0003917217254638672,0.002450704574584961,0,0
1.1001520156860352,-0.11920047551393509,0.15500885248184204,-0.37329262495040894,1.2941545254140319,0.7189301328562773,0.37159624695777893,-0.10924463719129562,-0.800000011920929,0.0,0.0,-0.9,0.0,0.0002741813659667969,0.0002741813659667969,0.0017361640930175781,0,0
1.1098048686981201,-0.11920047551393509,0.15500885248184204,-0.37329262495040894,1.2941545254140319,0.7177681899536078,0.36818182468414307,-0.1161092221736908,-0.800000011920929,0.0,0.0,-0.9,0.0,0.00022554397583007812,0.00022554397583007812,0.0015211105346679688,0,0
1.1199254989624023,-0.11612577736377716,0.15283334255218506,-0.38053685426712036,1.2883357349399938,0.7166414834552552,0.36420774459838867,-0.12269936501979828,-0.800000011920929,0.0,0.0,-0.9,0.0,0.0002357959747314453,0.0002357959747314453,0.0015642642974853516,0,0
1.1296651363372803,-0.11002213507890701,0.14840492606163025,-0.3948303759098053,1.2766360741581302,0.7153619978267322,0.35760387778282166,-0.13037239015102386,-0.800000011920929,0.0,0.0,-0.9,0.0,0.0002319812774658203,0.0002319812774658203,0.0014154911041259766,0,0
1.1400425434112549,-0.1069965809583664,0.14615362882614136,-0.4018787741661072,1.2706741366670218,0.7141617237993936,0.35109156370162964,-0.13747087121009827,-0.800000011920929,0.0,0.0,-0.9,0.0,0.0002422332763671875,0.0002422332763671875,0.0015134811401367188,0,0
1.1498396396636963,-0.10398951917886734,0.1438743621110916,-0.40884989500045776,1.2646906846314183,0.7130304037980376,0.3445016145706177,-0.14407451450824738,-0.800000011920929,0.0,0.0,-0.9,0.0,0.00027751922607421875,0.00027751922607421875,0.001905202865600586,0,0
1.1597559452056885,-0.10100257396697998,0.14156825840473175,-0.4157436788082123,1.2586903867374952,0.7119623220938271,0.3377307057380676,-0.15024332702159882,-0.800000011920929,0.0,0.0,-0.9,0.0,0.0002269744873046875,0.0002269744873046875,0.0014910697937011719,0,0
1.1699004173278809,-0.09509506821632385,0.13688015937805176,-0.42929893732070923,1.2466279850758164,0.7107976782157186,0.3281567096710205,-0.15695688128471375,-0.800000011920929,0.0,0.0,-0.9,0.0,0.0002377033233642578,0.0002377033233642578,0.0015900135040283203,0,0
1.1799507141113281,-0.09217743575572968,0.13450050354003906,-0.4359978437423706,1.2405673095397134,0.7097211711447343,0.3190421462059021,-0.16310150921344757,-0.800000011920929,0.0,0.0,-0.9,0.0,0.00025725364685058594,0.00025725364685058594,0.0015680789947509766,0,0
1.1898815631866455,-0.08928575366735458,0.13209882378578186,-0.4426189959049225,1.2344882404288877,0.7087208650084403,0.3101382851600647,-0.16871829330921173,-0.800000011920929,0.0,0.0,-0.9,0.0,0.0002338886260986328,0.0002338886260986328,0.0014681816101074219,0,0
1.1997535228729248,-0.08642924576997757,0.12966957688331604,-0.44916248321533203,1.228389835743651,0.7077880291264534,0.30126166343688965,-0.173886239528656,-0.800000011920929,0.0,0.0,-0.9,0.0,0.00022721290588378906,0.00022721290588378906,0.0017328262329101562,0,0
1.2097852230072021,-0.08360161632299423,0.1272207647562027,-0.45562824606895447,1.222207434414598,0.7069148808889324,0.2923221290111542,-0.17864710092544556,-0.800000011920929,0.0,0.0,-0.9,0.0,0.0002262592315673828,0.0002262592315673828,0.001390695571899414,0,0
1.2200181484222412,-0.07731565088033676,0.12194713205099106,-0.4705105125904083,1.2097756143567064,0.7059063996519696,0.2809506058692932,-0.18345347046852112,-0.800000011920929,0.0,0.0,-0.9,0.0,0.00043654441833496094,0.00043654441833496094,0.0019273757934570312,0,0
1.229740858078003,-0.07423344254493713,0.11929137259721756,-0.477794349193573,1.2035254797906345,0.704956831140652,0.27038347721099854,-0.187811017036438,-0.800000011920929,0.0,0.0,-0.9,0.0,0.0002777576446533203,0.0002777576446533203,0.0016498565673828125,0,0
1.2400808334350586,-0.07119306921958923,0.11662451922893524,-0.4850059449672699,1.1972542308779561,0.7040597770066601,0.2603108286857605,-0.19173479080200195,-0.800000011920929,0.0,0.0,-0.9,0.0,0.0002391338348388672,0.0002391338348388672,0.001596212387084961,0,0
1.2500238418579102,-0.06524153053760529,0.11126267910003662,-0.4991186261177063,1.184649934516631,0.7030827323507834,0.24765069782733917,-0.19538834691047668,-0.800000011920929,0.0,0.0,-0.9,0.0,0.0002460479736328125,0.0002460479736328125,0.001905679702758789,0,0
1.2597301006317139,-0.06233220174908638,0.10857047885656357,-0.5060211420059204,1.1783204218703163,0.702183855172865,0.2359379678964615,-0.19864656031131744,-0.800000011920929,0.0,0.0,-0.9,0.0,0.0002551078796386719,0.0002551078796386719,0.0014538764953613281,0,0
1.269921064376831,-0.059480972588062286,0.10585948824882507,-0.5128223299980164,1.17197398118684,0.7013528405140896,0.22483377158641815,-0.20153801143169403,-0.800000011920929,0.0,0.0,-0.9,0.0,0.00030732154846191406,0.00030732154846191406,0.002228975296020508,0,0
1.2796967029571533,-0.05667610466480255,0.10314398258924484,-0.5195226073265076,1.1655205843611753,0.7005828735989797,0.21411432325839996,-0.20406624674797058,-0.800000011920929,0.0,0.0,-0.9,0.0,0.00019812583923339844,0.00019812583923339844,0.002092599868774414,0,0
1.289893627166748,-0.05120798200368881,0.09770505875349045,-0.53268963098526,1.1525642363371726,0.6997675834265853,0.20061731338500977,-0.20603257417678833,-0.800000011920929,0.0,0.0,-0.9,0.0,0.00023603439331054688,0.00023603439331054688,0.0014853477478027344,0,0
1.2997329235076904,-0.048545897006988525,0.09498438239097595,-0.539122998714447,1.1460619799765486,0.6990275339436057,0.1881335973739624,-0.20775295794010162,-0.800000011920929,0.0,0.0,-0.9,0.0,0.00021982192993164062,0.00021982192993164062,0.0017125606536865234,0,0
1.3098299503326416,-0.04593263193964958,0.09226465225219727,-0.5454572439193726,1.139546968746383,0.6983529529600301,0.17634281516075134,-0.209169402718544,-0.800000011920929,0.0,0.0,-0.9,0.0,0.00022745132446289062,0.00022745132446289062,0.001430511474609375,0,0
1.3199443817138672,-0.04085446149110794,0.08683444559574127,-0.5578302145004272,1.1264769462357578,0.6976616607309142,0.16195066273212433,-0.20980356633663177,-0.800000011920929,0.0,0.0,-0.9,0.0,0.00023865699768066406,0.00023865699768066406,0.0017066001892089844,0,0
1.3299503326416016,-0.03839048743247986,0.08412680774927139,-0.5639054775238037,1.1199229497295746,0.6970428156629981,0.1487746238708496,-0.21031378209590912,-0.800000011920929,0.0,0.0,-0.9,0.0,0.00025773048400878906,0.00025773048400878906,0.0019178390502929688,0,0
1.3398711681365967,-0.03515176475048065,0.08119478076696396,-0.5699225068092346,1.1133580431408967,0.6964874057384711,0.13701047003269196,-0.21040165424346924,-0.800000011920929,0.0,0.0,-0.9,0.0,0.00023746490478515625,0.00023746490478515625,0.001642465591430664,0,0
1.3499939441680908,-0.03198393061757088,0.0782761499285698,-0.5758419036865234,1.106698631283529,0.6959878689402246,0.12622350454330444,-0.2100653052330017,-0.800000011920929,0.0,0.0,-0.9,0.0,0.0002827644348144531,0.0002827644348144531,0.0020415782928466797,0,0
1.3597595691680908,-0.028886694461107254,0.07537204027175903,-0.5816642045974731,1.1000262659838063,0.69553818261602,0.11611735820770264,-0.20934152603149414,-0.800000011920929,0.0,0.0,-0.9,0.0,0.00022172927856445312,0.00022172927856445312,0.0014057159423828125,0,0
1.3699522018432617,-0.022902509197592735,0.0696122869849205,-0.593019425868988,1.0866581717857604,0.6950902464500492,0.1040169969201088,-0.2072109431028366,-0.800000011920929,0.0,0.0,-0.9,0.0,0.00023889541625976562,0.00023889541625976562,0.0016505718231201172,0,0
1.3798141479492188,-0.02001490816473961,0.06675916165113449,-0.5985901355743408,1.0799630573716532,0.6946958930937042,0.0929645448923111,-0.20506465435028076,-0.800000011920929,0.0,0.0,-0.9,0.0,0.0002570152282714844,0.0002570152282714844,0.00177001953125,0,0
1.3899288177490234,-0.017196420580148697,0.06392546743154526,-0.6040648818016052,1.0732587156455191,0.694348947251773,0.08266615867614746,-0.20280137658119202,-0.800000011920929,0.0,0.0,-0.9,0.0,0.00033736228942871094,0.00033736228942871094,0.001802682876586914,0,0
1.3998398780822754,-0.014446673914790154,0.06111250817775726,-0.6094443202018738,1.066548169605446,0.6940439613144854,0.07291923463344574,-0.2003866732120514,-0.800000011920929,0.0,0.0,-0.9,0.0,0.0002522468566894531,0.0002522468566894531,0.001962900161743164,0,0
1.4097883701324463,-0.011765224859118462,0.05832138657569885,-0.6147289872169495,1.0598321434022107,0.6937769286770685,0.06357834488153458,-0.19779935479164124,-0.800000011920929,0.0,0.0,-0.9,0.0,0.00022840499877929688,0.00022840499877929688,0.0014293193817138672,0,0
1.4199531078338623,-0.006660959683358669,0.05278601497411728,-0.6250172853469849,1.0461145825627418,0.6935268190174797,0.05213338881731033,-0.19382411241531372,-0.800000011920929,0.0,0.0,-0.9,0.0,0.0002646446228027344,0.0002646446228027344,0.0016732215881347656,0,0
1.4298498630523682,-0.004210344515740871,0.050054676830768585,-0.6300219297409058,1.0391131665063376,0.6933169291021086,0.04160672426223755,-0.1901162713766098,-0.800000011920929,0.0,0.0,-0.9,0.0,0.00025916099548339844,0.00025916099548339844,0.0018298625946044922,0,0
1.4398367404937744,-0.0018266892293468118,0.04734909534454346,-0.6349714994430542,1.0321104641192553,0.693141774842304,0.03177764266729355,-0.1865379810333252,-0.800000011920929,0.0,0.0,-0.9,0.0,0.00022721290588378906,0.00022721290588378906,0.0014657974243164062,0,0
1.449988603591919,0.0027424476575106382,0.0420195534825325,-0.6445932984352112,1.0181087096577934,0.6929961774813294,0.02022804506123066,-0.18162724375724792,-0.800000011920929,0.0,0.0,-0.9,0.0,0.00025963783264160156,0.00025963783264160156,0.0019459724426269531,0,0
1.4597532749176025,0.0049292827025055885,0.0393977165222168,-0.6492670178413391,1.0111065911754424,0.6928845675758862,0.009756049141287804,-0.17714910209178925,-0.800000011920929,0.0,0.0,-0.9,0.0,0.00022792816162109375,0.00022792816162109375,0.001367807388305664,0,0
1.4699149131774902,0.006339316722005606,0.036892764270305634,-0.6544778347015381,1.004104138306617,0.6927786970523363,-0.0003172941505908966,-0.17321297526359558,-0.800000011920929,0.0,0.0,-0.9,0.0,0.00024390220642089844,0.00024390220642089844,0.0017540454864501953,0,0
1.479985237121582,0.007706248201429844,0.034428197890520096,-0.6595836877822876,0.9970907559703241,0.6926818403369664,-0.010057003237307072,-0.16958491504192352,-0.800000011920929,0.0,0.0,-0.9,0.0,0.0004286766052246094,0.0004286766052246094,0.002195596694946289,0,0
1.4898948669433594,0.01030064933001995,0.02959444187581539,-0.6695533990859985,0.9834386557249152,0.6925864306181377,-0.02192208729684353,-0.16498608887195587,-0.800000011920929,0.0,0.0,-0.9,0.0,0.00024080276489257812,0.00024080276489257812,0.0016050338745117188,0,0
1.4999988079071045,0.011528789065778255,0.027227044105529785,-0.6743841171264648,0.9766136292279272,0.6925097002560915,-0.03275066986680031,-0.1609184741973877,-0.800000011920929,0.0,0.0,-0.9,0.0,0.0002562999725341797,0.0002562999725341797,0.0017914772033691406,0,0
1.509796380996704,0.012711146846413612,0.024893706664443016,-0.6791135668754578,0.9697959831031732,0.6924509448540017,-0.04278373718261719,-0.15718655288219452,-0.800000011920929,0.0,0.0,-0.9,0.0,0.00023174285888671875,0.00023174285888671875,0.0014743804931640625,0,0
1.519944190979004,0.013848008587956429,0.02259540744125843,-0.683742880821228,0.9629809425613676,0.6924101684102748,-0.052185576409101486,-0.1536499410867691,-0.800000011920929,0.0,0.0,-0.9,0.0,0.00024437904357910156,0.00024437904357910156,0.0016994476318359375,0,0
1.5297338962554932,0.015987582504749298,0.018106531351804733,-0.692742109298706,0.9493718148275543,0.6923969964607387,-0.06317956000566483,-0.14902958273887634,-0.800000011920929,0.0,0.0,-0.9,0.0,0.0002827644348144531,0.0002827644348144531,0.0017957687377929688,0,0
1.5400364398956299,0.016991259530186653,0.01591736637055874,-0.6971130967140198,0.9425751297340018,0.6924030697820397,-0.07306211441755295,-0.14487020671367645,-0.800000011920929,0.0,0.0,-0.9,0.0,0.0002319812774658203,0.0002319812774658203,0.0014548301696777344,0,0
1.549987554550171,0.0179534163326025,0.01378489751368761,-0.7013868093490601,0.9357823083797305,0.6924279935741796,-0.0821041464805603,-0.1409962922334671,-0.800000011920929,0.0,0.0,-0.9,0.0,0.0002663135528564453,0.0002663135528564453,0.0018994808197021484,0,0
1.559741735458374,0.01887230947613716,0.01169058121740818,-0.705564558506012,0.9289678875703227,0.6924705436166066,-0.09046106040477753,-0.13728006184101105,-0.800000011920929,0.0,0.0,-0.9,0.0,0.00022029876708984375,0.00022029876708984375,0.00138092041015625,0,0
1.5699145793914795,0.020582761615514755,0.007618608418852091,-0.7136363983154297,0.9153561518152278,0.6925574900283259,-0.10002538561820984,-0.13245649635791779,-0.800000011920929,0.0,0.0,-0.9,0.0,0.0003528594970703125,0.0003528594970703125,0.001705169677734375,0,0
1.5796940326690674,0.021375339478254318,0.0056419577449560165,-0.7175703644752502,0.9085648942485239,0.6926581466811529,-0.1085246279835701,-0.12810155749320984,-0.800000011920929,0.0,0.0,-0.9,0.0,0.00024366378784179688,0.00024366378784179688,0.00212860107421875,0,0
1.5898747444152832,0.021515341475605965,0.003761357394978404,-0.7222074270248413,0.9017888921643196,0.6927448359970565,-0.11654774844646454,-0.12440527975559235,-0.800000011920929,0.0,0.0,-0.9,0.0,0.00025200843811035156,0.00025200843811035156,0.0015447139739990234,0,0
1.5998749732971191,0.021626342087984085,0.0019212588667869568,-0.7267323732376099,0.8949539196193486,0.6928239874019958,-0.12414323538541794,-0.12115940451622009,-0.800000011920929,0.0,0.0,-0.9,0.0,0.0002529621124267578,0.0002529621124267578,0.0017299652099609375,0,0
1.6097793579101562,0.02176251821219921,-0.001635856693610549,-0.73545241355896,0.8813208157038439,0.6929151909252338,-0.1330435872077942,-0.11738444864749908,-0.800000011920929,0.0,0.0,-0.9,0.0,0.00022983551025390625,0.00022983551025390625,0.0015099048614501953,0,0
1.6200239658355713,0.021800046786665916,-0.0033419777173548937,-0.739650547504425,0.8745237770107913,0.6930082360858555,-0.14094915986061096,-0.11406810581684113,-0.800000011920929,0.0,0.0,-0.9,0.0,0.00040793418884277344,0.00040793418884277344,0.0027022361755371094,0,0
1.6298696994781494,0.021810581907629967,-0.0050064194947481155,-0.7437429428100586,0.867945407050067,0.6931056045697823,-0.14805835485458374,-0.11106400191783905,-0.800000011920929,0.0,0.0,-0.9,0.0,0.0003921985626220703,0.0003921985626220703,0.0024313926696777344,0,0
1.640026330947876,0.02179466001689434,-0.006628996692597866,-0.747765839099884,0.8613788195453913,0.6932080433278522,-0.15450508892536163,-0.10826671868562698,-0.800000011920929,0.0,0.0,-0.9,0.0,0.00023794174194335938,0.00023794174194335938,0.0016226768493652344,0,0
1.6498007774353027,0.021685540676116943,-0.00974806398153305,-0.7555021643638611,0.8482723559141162,0.6933474569821221,-0.16160930693149567,-0.10477278381586075,-0.800000011920929,0.0,0.0,-0.9,0.0,0.00027632713317871094,0.00027632713317871094,0.0018858909606933594,0,0
1.6597139835357666,0.021593468263745308,-0.011244564317166805,-0.7592182159423828,0.8417303785065681,0.6934929898871193,-0.16775576770305634,-0.10162268579006195,-0.800000011920929,0.0,0.0,-0.9,0.0,0.00023174285888671875,0.00023174285888671875,0.0014333724975585938,0,0
1.6698808670043945,0.02147717773914337,-0.012699112296104431,-0.7628348469734192,0.8351946312915343,0.6936464105632936,-0.17313875257968903,-0.09869139641523361,-0.800000011920929,0.0,0.0,-0.9,0.0,0.0002357959747314453,0.0002357959747314453,0.001688241958618164,0,0
1.6797361373901367,0.021337198093533516,-0.014111562632024288,-0.7663532495498657,0.8286681563615125,0.6938086198826515,-0.17789457738399506,-0.09590015560388565,-0.800000011920929,0.0,0.0,-0.9,0.0,0.00026035308837890625,0.00026035308837890625,0.0019021034240722656,0,0
1.6898388862609863,0.020983578637242317,-0.016816625371575356,-0.7731731534004211,0.8156362879265607,0.6940216464303728,-0.1828521192073822,-0.092372365295887,-0.800000011920929,0.0,0.0,-0.9,0.0,0.0002315044403076172,0.0002315044403076172,0.0015935897827148438,0,0
1.69987154006958,0.020771538838744164,-0.018109675496816635,-0.7764399647712708,0.8092700050692421,0.6942377241733108,-0.18700648844242096,-0.08915899693965912,-0.800000011920929,0.0,0.0,-0.9,0.0,0.00025200843811035156,0.00025200843811035156,0.001734018325805664,0,0
1.7098100185394287,0.020538825541734695,-0.019361348822712898,-0.779613196849823,0.802910542634798,0.6944589353767758,-0.1904979795217514,-0.08614718168973923,-0.800000011920929,0.0,0.0,-0.9,0.0,0.00023221969604492188,0.00023221969604492188,0.0014276504516601562,0,0
1.7198686599731445,0.020475594326853752,-0.02046658843755722,-0.783383846282959,0.7965583418654159,0.6946621137313644,-0.19345147907733917,-0.08316414058208466,-0.800000011920929,0.0,0.0,-0.9,0.0,0.00024819374084472656,0.00024819374084472656,0.0016362667083740234,0,0
1.7297532558441162,0.02027081698179245,-0.022558584809303284,-0.7906347513198853,0.7838225055098957,0.6948842289918703,-0.19625401496887207,-0.07927077263593674,-0.800000011920929,0.0,0.0,-0.9,0.0,0.0002510547637939453,0.0002510547637939453,0.0015637874603271484,0,0
1.740016222000122,0.020130952820181847,-0.023545850068330765,-0.7941176891326904,0.7774639950138248,0.6950954738268857,-0.19848833978176117,-0.07565914839506149,-0.800000011920929,0.0,0.0,-0.9,0.0,0.0002346038818359375,0.0002346038818359375,0.0014803409576416016,0,0
1.7500216960906982,0.01996731385588646,-0.02449444867670536,-0.7974965572357178,0.7711104525513832,0.6953009650440517,-0.20023703575134277,-0.07224646955728531,-0.800000011920929,0.0,0.0,-0.9,0.0,0.00024199485778808594,0.00024199485778808594,0.0019154548645019531,0,0
1.7597360610961914,0.01979481428861618,-0.025390416383743286,-0.8007725477218628,0.7647666888042373,0.6955046354358974,-0.20155499875545502,-0.06895165890455246,-0.800000011920929,0.0,0.0,-0.9,0.0,0.00021958351135253906,0.00021958351135253906,0.0013277530670166016,0,0
1.769967794418335,0.01938648521900177,-0.0270709078758955,-0.8070235252380371,0.7528014909430462,0.695751649385661,-0.202411487698555,-0.06489931046962738,-0.800000011920929,0.0,0.0,-0.9,0.0,0.00028514862060546875,0.00028514862060546875,0.001804351806640625,0,0
1.7797191143035889,0.01915239728987217,-0.02785632386803627,-0.810036838054657,0.7468277875621393,0.6959936007908607,-0.20289073884487152,-0.061201632022857666,-0.800000011920929,0.0,0.0,-0.9,0.0,0.00031280517578125,0.00031280517578125,0.0016901493072509766,0,0
1.7898988723754883,0.018899569287896156,-0.028605954721570015,-0.8129533529281616,0.7408555703649065,0.6962343405053565,-0.20301708579063416,-0.05776497721672058,-0.800000011920929,0.0,0.0,-0.9,0.0,0.00024199485778808594,0.00024199485778808594,0.0016400814056396484,0,0
1.7998178005218506,0.01862875372171402,-0.02932036854326725,-0.8157743215560913,0.7348861535124446,0.6964765376330931,-0.20283319056034088,-0.054526835680007935,-0.800000011920929,0.0,0.0,-0.9,0.0,0.00032401084899902344,0.00032401084899902344,0.0019359588623046875,0,0
1.8097758293151855,0.018036600202322006,-0.030645357444882393,-0.8211356401443481,0.7229512087549302,0.6967768665065521,-0.20191052556037903,-0.050641100853681564,-0.800000011920929,0.0,0.0,-0.9,0.0,0.0002281665802001953,0.0002281665802001953,0.0013926029205322266,0,0
1.8198447227478027,0.017717082053422928,-0.031257353723049164,-0.8236787915229797,0.7169822352116054,0.6970733968713296,-0.20078212022781372,-0.04712321236729622,-0.800000011920929,0.0,0.0,-0.9,0.0,0.0003027915954589844,0.0003027915954589844,0.0016922950744628906,0,0
1.8296988010406494,0.017398299649357796,-0.03182878717780113,-0.8261321783065796,0.7110134143608797,0.6973689547505596,-0.1994469165802002,-0.04385223984718323,-0.800000011920929,0.0,0.0,-0.9,0.0,0.00028228759765625,0.00028228759765625,0.00185394287109375,0,0
1.8398125171661377,0.01693597249686718,-0.03232084959745407,-0.8294326066970825,0.7052557273596705,0.6976326300371619,-0.19801484048366547,-0.04088882729411125,-0.800000011920929,0.0,0.0,-0.9,0.0,0.0002484321594238281,0.0002484321594238281,0.0015358924865722656,0,0
1.8499033451080322,0.015978099778294563,-0.03321203216910362,-0.835704505443573,0.6937233452503824,0.6979064403174097,-0.19581201672554016,-0.03753514960408211,-0.800000011920929,0.0,0.0,-0.9,0.0,0.00024437904357910156,0.00024437904357910156,0.0019497871398925781,0,0
1.8596651554107666,0.015484005212783813,-0.033612560480833054,-0.838679850101471,0.6879525078958549,0.6981613245453578,-0.1935940384864807,-0.03456645831465721,-0.800000011920929,0.0,0.0,-0.9,0.0,0.00021982192993164062,0.00021982192993164062,0.001401662826538086,0,0
1.8698327541351318,0.014980750158429146,-0.03398403525352478,-0.8415507078170776,0.6821784239068269,0.6984034850875841,-0.19131876528263092,-0.03188658133149147,-0.800000011920929,0.0,0.0,-0.9,0.0,0.0002522468566894531,0.0002522468566894531,0.0016970634460449219,0,0
1.8796508312225342,0.01394927129149437,-0.034642547369003296,-0.8470185399055481,0.6706131235483843,0.6986802003931235,-0.18812686204910278,-0.028863707557320595,-0.800000011920929,0.0,0.0,-0.9,0.0,0.0002701282501220703,0.0002701282501220703,0.0016453266143798828,0,0
1.8898775577545166,0.013422497548162937,-0.03493114933371544,-0.8496183753013611,0.6648229401245169,0.6989459853456929,-0.18502870202064514,-0.02620750106871128,-0.800000011920929,0.0,0.0,-0.9,0.0,0.00022220611572265625,0.00022220611572265625,0.0014491081237792969,0,0
1.8998346328735352,0.012894616462290287,-0.03519222512841225,-0.8521199226379395,0.6590308439027803,0.699206285948753,-0.1819600909948349,-0.0238275695592165,-0.800000011920929,0.0,0.0,-0.9,0.0,0.0002574920654296875,0.0002574920654296875,0.0018913745880126953,0,0
1.909731149673462,0.012360813096165657,-0.03542797267436981,-0.8545247316360474,0.6532031492799257,0.6994645473690501,-0.17888468503952026,-0.021642521023750305,-0.800000011920929,0.0,0.0,-0.9,0.0,0.00021648406982421875,0.00021648406982421875,0.0013363361358642578,0,0
1.9198172092437744,0.01182184461504221,-0.03563902899622917,-0.8568345308303833,0.6473694044717938,0.6997232724511648,-0.1757790744304657,-0.01960618793964386,-0.800000011920929,0.0,0.0,-0.9,0.0,0.00024771690368652344,0.00024771690368652344,0.001722574234008789,0,0
1.9297401905059814,0.010730779729783535,-0.035990145057439804,-0.8612101674079895,0.6356583156706793,0.700038319394765,-0.17157790064811707,-0.01721714250743389,-0.7984451055526733,0.0,0.0,-0.9,0.0,0.00022912025451660156,0.00022912025451660156,0.0019683837890625,0,0
1.9397499561309814,0.01017976738512516,-0.036131590604782104,-0.8632785081863403,0.6297803434641378,0.7003466436488629,-0.16758956015110016,-0.015086119994521141,-0.7951492071151733,0.0,0.0,-0.9,0.0,0.00022554397583007812,0.00022554397583007812,0.0013625621795654297,0,0
1.950016736984253,0.009625863283872604,-0.03625116124749184,-0.8652576804161072,0.6238868059784058,0.7006518438122777,-0.16373352706432343,-0.01316011045128107,-0.7906278967857361,0.0,0.0,-0.9,0.0,0.000270843505859375,0.000270843505859375,0.0017383098602294922,0,0
1.95969820022583,0.009069466032087803,-0.03634970262646675,-0.8671492338180542,0.6179784163361997,0.700956342443207,-0.15994539856910706,-0.01139580737799406,-0.7852423787117004,0.0,0.0,-0.9,0.0,0.00023508071899414062,0.00023508071899414062,0.0013058185577392578,0,0
1.9698622226715088,0.007688008248806,-0.035486429929733276,-0.8712508678436279,0.6060906009339895,0.7013092411797084,-0.15594002604484558,-0.009142148308455944,-0.7770079970359802,0.0,0.0,-0.9,0.0,0.00025725364685058594,0.00025725364685058594,0.0017311573028564453,0,0
1.9797284603118896,0.006994692143052816,-0.03504215180873871,-0.8731978535652161,0.5998750038356534,0.7016480680448247,-0.15242181718349457,-0.007071567699313164,-0.7689114212989807,0.0,0.0,-0.9,0.0,0.0002887248992919922,0.0002887248992919922,0.0016810894012451172,0,0
1.9898579120635986,0.006304359994828701,-0.034587420523166656,-0.8750549554824829,0.5936452999888335,0.7019767375055215,-0.1492217630147934,-0.005147392395883799,-0.7609044313430786,0.0,0.0,-0.9,0.0,0.000392913818359375,0.000392913818359375,0.0024695396423339844,0,0
1.9997761249542236,0.005617430433630943,-0.03412275388836861,-0.8768238425254822,0.5873984086766639,0.7022994297642247,-0.1462371051311493,-0.0033475745003670454,-0.7529527544975281,0.0,0.0,-0.9,0.0,0.0002779960632324219,0.0002779960632324219,0.0017468929290771484,0,0
2.009713649749756,0.004255246836692095,-0.03316543623805046,-0.8801034688949585,0.5748581596212982,0.7026813657984095,-0.14262118935585022,-0.0012287189019843936,-0.7426702976226807,0.0,0.0,-0.9,0.0,0.00022077560424804688,0.00022077560424804688,0.0013315677642822266,0,0
2.0197653770446777,0.003580721328034997,-0.03267380967736244,-0.8816174268722534,0.5685681621081979,0.7030505899381433,-0.13930445909500122,0.000646066851913929,-0.7331091165542603,0.0,0.0,-0.9,0.0,0.00026488304138183594,0.00026488304138183594,0.0015652179718017578,0,0
2.0298635959625244,0.002911209361627698,-0.032174188643693924,-0.883049726486206,0.562265637568505,0.7034109704877075,-0.13619594275951385,0.002332193311303854,-0.7240475416183472,0.0,0.0,-0.9,0.0,0.00027823448181152344,0.00027823448181152344,0.0018320083618164062,0,0
2.0399587154388428,0.002247151220217347,-0.03167090564966202,-0.8844374418258667,0.5559502740465891,0.7037646188406155,-0.13323895633220673,0.0038779813330620527,-0.7153304815292358,0.0,0.0,-0.9,0.0,0.0002410411834716797,0.0002410411834716797,0.0013632774353027344,0,0
2.04974365234375,0.0009373744251206517,-0.03064177930355072,-0.8869757652282715,0.542856439327408,0.7041812606620476,-0.12955284118652344,0.005665379110723734,-0.7043022513389587,0.0,0.0,-0.9,0.0,0.0003008842468261719,0.0003008842468261719,0.0016744136810302734,0,0
2.0597078800201416,0.00029240219737403095,-0.030116930603981018,-0.8881295919418335,0.5363011393432661,0.7045822673909735,-0.12616220116615295,0.0072267320938408375,-0.6941191554069519,0.0,0.0,-0.9,0.0,0.0002300739288330078,0.0002300739288330078,0.0013325214385986328,0,0
2.0698206424713135,-0.0003455305122770369,-0.029585836455225945,-0.8892087340354919,0.5297417851134593,0.7049720880254172,-0.12297620624303818,0.0086123151704669,-0.6845257878303528,0.0,0.0,-0.9,0.0,0.00027632713317871094,0.00027632713317871094,0.0016205310821533203,0,0
2.079742193222046,-0.0009760739048942924,-0.02904895506799221,-0.8902143836021423,0.5231769689242877,0.7053544250825223,-0.11993565410375595,0.009854531846940517,-0.6753430366516113,0.0,0.0,-0.9,0.0,0.0002753734588623047,0.0002753734588623047,0.0015130043029785156,0,0
2.08980655670166,-0.0015990184620022774,-0.028506804257631302,-0.8911843299865723,0.5166092737883213,0.7057312284502817,-0.11700301617383957,0.010978207923471928,-0.6664467453956604,0.0,0.0,-0.9,0.0,0.0002872943878173828,0.0002872943878173828,0.0015573501586914062,0,0
2.0997278690338135,-0.002456251299008727,-0.027077557519078255,-0.8955351114273071,0.5034589791445999,0.7060898678187191,-0.11355551332235336,0.01257060281932354,-0.6552701592445374,0.0,0.0,-0.9,0.0,0.0002295970916748047,0.0002295970916748047,0.0016169548034667969,0,0
2.109699249267578,-0.0028690542094409466,-0.0263604074716568,-0.897555410861969,0.4968802328337658,0.7064085890539609,-0.11045629531145096,0.014065664261579514,-0.6449730396270752,0.0,0.0,-0.9,0.0,0.00022292137145996094,0.00022292137145996094,0.0013468265533447266,0,0
2.1196677684783936,-0.0032771718688309193,-0.025642018765211105,-0.8994753360748291,0.49024741685622325,0.7066976664153677,-0.10760553926229477,0.015470929443836212,-0.6352710127830505,0.0,0.0,-0.9,0.0,0.00023794174194335938,0.00023794174194335938,0.0014405250549316406,0,0
2.12969970703125,-0.004078209400177002,-0.024203265085816383,-0.9030536413192749,0.47700110005984364,0.7070016263924132,-0.10426458716392517,0.01713171787559986,-0.62349534034729,0.0,0.0,-0.9,0.0,0.0003075599670410156,0.0003075599670410156,0.002508401870727539,0,0
2.1397805213928223,-0.00447041867300868,-0.02348385378718376,-0.9047155380249023,0.4703968478737395,0.707283407484633,-0.10126856714487076,0.018597152084112167,-0.612770140171051,0.0,0.0,-0.9,0.0,0.0002682209014892578,0.0002682209014892578,0.0014789104461669922,0,0
2.1496853828430176,-0.00485672103241086,-0.02276480384171009,-0.9062848091125488,0.4638092671171839,0.7075496114790719,-0.09852301329374313,0.019908275455236435,-0.6027863025665283,0.0,0.0,-0.9,0.0,0.0002155303955078125,0.0002155303955078125,0.0017886161804199219,0,0
2.159642457962036,-0.005236949305981398,-0.022046558558940887,-0.9077633023262024,0.45724105655495617,0.7078057470704203,-0.09596014767885208,0.021089131012558937,-0.5933287739753723,0.0,0.0,-0.9,0.0,0.00021886825561523438,0.00021886825561523438,0.0013387203216552734,0,0
2.1697936058044434,-0.005610872525721788,-0.021329481154680252,-0.9091529846191406,0.45069273798982845,0.7080551883999013,-0.09354276210069656,0.022162077948451042,-0.5842471718788147,0.0,0.0,-0.9,0.0,0.0002429485321044922,0.0002429485321044922,0.0016498565673828125,0,0
2.1797990798950195,-0.006354665383696556,-0.01989937014877796,-0.9117061495780945,0.4376629868066754,0.7083468083069295,-0.09060998260974884,0.023313743993639946,-0.5729917883872986,0.0,0.0,-0.9,0.0,0.00029349327087402344,0.00029349327087402344,0.002059459686279297,0,0
2.189760208129883,-0.006724240258336067,-0.01918760873377323,-0.9128726124763489,0.43127603710294937,0.7086282365834129,-0.08794735372066498,0.02426343411207199,-0.562714695930481,0.0,0.0,-0.9,0.0,0.00022912025451660156,0.00022912025451660156,0.0015594959259033203,0,0
2.1997172832489014,-0.007086839992552996,-0.0184788778424263,-0.9139569401741028,0.42491520459332,0.7089037720891157,-0.08548817038536072,0.025046957656741142,-0.5531324148178101,0.0,0.0,-0.9,0.0,0.0002090930938720703,0.0002090930938720703,0.0013968944549560547,0,0
2.209714651107788,-0.007855021394789219,-0.01704258844256401,-0.9163718819618225,0.41229429272088974,0.7092133525838535,-0.08266083896160126,0.025827057659626007,-0.5416839122772217,0.0,0.0,-0.9,0.0,0.0002231597900390625,0.0002231597900390625,0.0013325214385986328,0,0
2.2203209400177,-0.008257086388766766,-0.01631491258740425,-0.9176936149597168,0.40601136647650443,0.7095000386040757,-0.08016467094421387,0.02645392343401909,-0.5313118696212769,0.0,0.0,-0.9,0.0,0.00024127960205078125,0.00024127960205078125,0.0014269351959228516,0,0
2.2296664714813232,-0.008648643270134926,-0.015590899623930454,-0.918927788734436,0.3997658052247643,0.7097705693590005,-0.07791189104318619,0.026955779641866684,-0.5217074155807495,0.0,0.0,-0.9,0.0,0.0002646446228027344,0.0002646446228027344,0.001538991928100586,0,0
2.2403810024261475,-0.008648643270134926,-0.015590899623930454,-0.918927788734436,0.3997658052247643,0.709987036933308,-0.0763368234038353,0.02729852870106697,-0.5149856805801392,0.0,0.0,-0.9,0.0,0.0004019737243652344,0.0004019737243652344,0.0024569034576416016,0,0
2.2499279975891113,-0.009400222450494766,-0.014155617915093899,-0.9212007522583008,0.3873943206312475,0.7102445232767698,-0.07424645870923996,0.02762375958263874,-0.5056363940238953,0.0,0.0,-0.9,0.0,0.0002646446228027344,0.0002646446228027344,0.0018930435180664062,0,0
2.2598090171813965,-0.009400222450494766,-0.014155617915093899,-0.9212007522583008,0.3873943206312475,0.7104504920104621,-0.07278531789779663,0.02784392610192299,-0.4990929961204529,0.0,0.0,-0.9,0.0,0.00022363662719726562,0.00022363662719726562,0.0014657974243164062,0,0
2.269742250442505,-0.010418131947517395,-0.01203423272818327,-0.923994779586792,0.36946454654281596,0.710754663878044,-0.07034321129322052,0.02798410877585411,-0.487785279750824,0.0,0.0,-0.9,0.0,0.000240325927734375,0.000240325927734375,0.0014748573303222656,0,0
2.279815912246704,-0.010418131947517395,-0.01203423272818327,-0.923994779586792,0.36946454654281596,0.7109979962983879,-0.06863763928413391,0.02807207964360714,-0.47987106442451477,0.0,0.0,-0.9,0.0,0.0002624988555908203,0.0002624988555908203,0.0014963150024414062,0,0
2.289729595184326,-0.01134891714900732,-0.009969857521355152,-0.9261531829833984,0.352101975394936,0.7113462192553806,-0.06608117371797562,0.02798376977443695,-0.46782049536705017,0.0,0.0,-0.9,0.0,0.00023984909057617188,0.00023984909057617188,0.0016062259674072266,0,0
2.3000450134277344,-0.01134891714900732,-0.009969857521355152,-0.9261531829833984,0.352101975394936,0.7116247593561941,-0.06429736316204071,0.027911074459552765,-0.45938608050346375,0.0,0.0,-0.9,0.0,0.0002899169921875,0.0002899169921875,0.0018663406372070312,0,0
2.3097119331359863,-0.011922416277229786,-0.008628659881651402,-0.9272428154945374,0.3407732542914526,0.7119554713775873,-0.06219109892845154,0.027698012068867683,-0.44923585653305054,0.0,0.0,-0.9,0.0,0.0002334117889404297,0.0002334117889404297,0.0013298988342285156,0,0
2.3200340270996094,-0.011922416277229786,-0.008628659881651402,-0.9272428154945374,0.3407732542914526,0.7122200286868086,-0.06072160229086876,0.027541616931557655,-0.4421311914920807,0.0,0.0,-0.9,0.0,0.00028777122497558594,0.00028777122497558594,0.0018465518951416016,0,0
2.329676628112793,-0.012719443999230862,-0.006664593704044819,-0.9283866882324219,0.3245193550726646,0.7126029165588811,-0.05842369794845581,0.027039743959903717,-0.43106964230537415,0.0,0.0,-0.9,0.0,0.00026917457580566406,0.00026917457580566406,0.0017383098602294922,0,0
2.340123176574707,-0.012719443999230862,-0.006664593704044819,-0.9283866882324219,0.3245193550726646,0.7129091662049334,-0.05682234466075897,0.02668040245771408,-0.4233267605304718,0.0,0.0,-0.9,0.0,0.0002224445343017578,0.0002224445343017578,0.0014560222625732422,0,0
2.349790334701538,-0.012463145889341831,-0.004156832583248615,-0.9296603798866272,0.314053982319384,0.713245580990146,-0.05576853081583977,0.02681640349328518,-0.4139697551727295,0.0,0.0,-0.9,0.0,0.000255584716796875,0.000255584716796875,0.0016622543334960938,0,0
2.359830379486084,-0.012463145889341831,-0.004156832583248615,-0.9296603798866272,0.314053982319384,0.7135146357011655,-0.05503244698047638,0.02690800651907921,-0.40742015838623047,0.0,0.0,-0.9,0.0,0.000225067138671875,0.000225067138671875,0.0014033317565917969,0,0
2.369668483734131,-0.012084509246051311,-0.0005484926514327526,-0.9310199022293091,0.29873106151025314,0.7138771790018442,-0.05466434359550476,0.027457399293780327,-0.3970724642276764,0.0,0.0,-0.9,0.0,0.00024366378784179688,0.00024366378784179688,0.0017664432525634766,0,0
2.37983775138855,-0.012084509246051311,-0.0005484926514327526,-0.9310199022293091,0.29873106151025314,0.7141671357896977,-0.05440536513924599,0.02783992700278759,-0.38982918858528137,0.0,0.0,-0.9,0.0,0.0002465248107910156,0.0002465248107910156,0.0018205642700195312,0,0
2.389793872833252,-0.011853985488414764,0.0017583707813173532,-0.931641161441803,0.28878144183076543,0.7145020718205695,-0.054320354014635086,0.02832757867872715,-0.3810185194015503,0.0,0.0,-0.9,0.0,0.0002639293670654297,0.0002639293670654297,0.0015361309051513672,0,0
2.3997507095336914,-0.011853985488414764,0.0017583707813173532,-0.931641161441803,0.28878144183076543,0.7147699061698339,-0.05425943806767464,0.028668129816651344,-0.3748510181903839,0.0,0.0,-0.9,0.0,0.0002522468566894531,0.0002522468566894531,0.0017573833465576172,0,0
2.4096693992614746,-0.01164315827190876,0.003988068550825119,-0.9319943189620972,0.27903940481442296,0.7150922110411804,-0.05428588017821312,0.029067030176520348,-0.36687251925468445,0.0,0.0,-0.9,0.0,0.00021886825561523438,0.00021886825561523438,0.0013535022735595703,0,0
2.4199469089508057,-0.01164315827190876,0.003988068550825119,-0.9319943189620972,0.27903940481442296,0.7153499632059843,-0.05430317670106888,0.029345959424972534,-0.36128753423690796,0.0,0.0,-0.9,0.0,0.0002377033233642578,0.0002377033233642578,0.0016617774963378906,0,0
2.429687976837158,-0.011325945146381855,0.007187541574239731,-0.9320478439331055,0.2648213161152415,0.7157235668411205,-0.05435613915324211,0.029669277369976044,-0.35203713178634644,0.0,0.0,-0.9,0.0,0.0002033710479736328,0.0002033710479736328,0.0015854835510253906,0,0
2.4402430057525635,-0.011325945146381855,0.007187541574239731,-0.9320478439331055,0.2648213161152415,0.7160223265940706,-0.05439202859997749,0.02989555522799492,-0.34556180238723755,0.0,0.0,-0.9,0.0,0.0002334117889404297,0.0002334117889404297,0.0014882087707519531,0,0
2.4499149322509766,-0.01111397985368967,0.009225800633430481,-0.9318503141403198,0.2555901911794767,0.716376215356621,-0.05438009649515152,0.03004889376461506,-0.33756375312805176,0.0,0.0,-0.9,0.0,0.00024890899658203125,0.00024890899658203125,0.0015649795532226562,0,0
2.4597814083099365,-0.01111397985368967,0.009225800633430481,-0.9318503141403198,0.2555901911794767,0.7166592389117997,-0.05437133461236954,0.03015623427927494,-0.3319651186466217,0.0,0.0,-0.9,0.0,0.00021457672119140625,0.00021457672119140625,0.0014045238494873047,0,0
2.470294237136841,-0.010312000289559364,0.012344613671302795,-0.931850016117096,0.2421882240365681,0.7170383252944749,-0.05433047190308571,0.030440175905823708,-0.3230096995830536,0.0,0.0,-0.9,0.0,0.00024890899658203125,0.00024890899658203125,0.0014011859893798828,0,0
2.4797203540802,-0.010312000289559364,0.012344613671302795,-0.931850016117096,0.2421882240365681,0.7173414601621527,-0.054301027208566666,0.030638614669442177,-0.31674090027809143,0.0,0.0,-0.9,0.0,0.00025534629821777344,0.00025534629821777344,0.0018961429595947266,0,0
2.4900479316711426,-0.009719248861074448,0.013476834632456303,-0.9322062730789185,0.23784434353805667,0.7176205568599654,-0.05429653078317642,0.031082652509212494,-0.3107143044471741,0.0,0.0,-0.9,0.0,0.00022745132446289062,0.00022745132446289062,0.0015158653259277344,0,0
2.499774217605591,-0.009136435575783253,0.01458749733865261,-0.9325238466262817,0.23354562244232452,0.7178809892031969,-0.05429341644048691,0.03167364001274109,-0.3048747479915619,0.0,0.0,-0.9,0.0,0.0002117156982421875,0.0002117156982421875,0.001562356948852539,0,0
2.509812593460083,-0.007999514229595661,0.01674509420990944,-0.9329522252082825,0.2250819838361583,0.718166204080809,-0.054253436625003815,0.032595209777355194,-0.2975965440273285,0.0,0.0,-0.9,0.0,0.00022363662719726562,0.00022363662719726562,0.0013773441314697266,0,0
2.5199434757232666,-0.007444863673299551,0.017792226746678352,-0.9330664873123169,0.22091548198162014,0.7184345957374969,-0.05417235195636749,0.03346257656812668,-0.2909318506717682,0.0,0.0,-0.9,0.0,0.00023698806762695312,0.00023698806762695312,0.00159454345703125,0,0
2.529770851135254,-0.006899143103510141,0.018818430602550507,-0.9331164360046387,0.2167921306726729,0.7186902268257512,-0.05404255539178848,0.034271351993083954,-0.28471338748931885,0.0,0.0,-0.9,0.0,0.0003123283386230469,0.0003123283386230469,0.0017590522766113281,0,0
2.5401062965393066,-0.0058270725421607494,0.020808596163988113,-0.9330635666847229,0.20867891821005827,0.7189782124696603,-0.05371233820915222,0.03516821190714836,-0.27730655670166016,0.0,0.0,-0.9,0.0,0.0002262592315673828,0.0002262592315673828,0.0014183521270751953,0,0
2.54990291595459,-0.005301007069647312,0.02177220769226551,-0.9329630136489868,0.2049047128787509,0.7192510299047539,-0.053324516862630844,0.03591882437467575,-0.2707022726535797,0.0,0.0,-0.9,0.0,0.0002658367156982422,0.0002658367156982422,0.0017354488372802734,0,0
2.559889078140259,-0.004783568903803825,0.02271481603384018,-0.9328036308288574,0.20117436401667443,0.7195130413849434,-0.05288132652640343,0.036541227251291275,-0.2646770477294922,0.0,0.0,-0.9,0.0,0.00022268295288085938,0.00022268295288085938,0.0014569759368896484,0,0
2.5699403285980225,-0.004274677950888872,0.02363651804625988,-0.9325867891311646,0.19748699240617656,0.7197670400790703,-0.0523807629942894,0.03703721612691879,-0.25907444953918457,0.0,0.0,-0.9,0.0,0.00027441978454589844,0.00027441978454589844,0.0016546249389648438,0,0
2.579698085784912,-0.003281952813267708,0.025417480617761612,-0.9319864511489868,0.19024204760444988,0.7200621165497161,-0.051587797701358795,0.0374465212225914,-0.2524333596229553,0.0,0.0,-0.9,0.0,0.00025916099548339844,0.00025916099548339844,0.0014748573303222656,0,0
2.589996099472046,-0.0027976215351372957,0.02627699449658394,-0.9316408634185791,0.18668348385380448,0.7203440208229716,-0.05079217627644539,0.03773355856537819,-0.24645021557807922,0.0,0.0,-0.9,0.0,0.00026154518127441406,0.00026154518127441406,0.0016846656799316406,0,0
2.599781036376953,-0.0016131842276081443,0.026962796226143837,-0.9319519996643066,0.1831657689642466,0.7205926973840311,-0.049784574657678604,0.03842303901910782,-0.24093206226825714,0.0,0.0,-0.9,0.0,0.00022029876708984375,0.00022029876708984375,0.001590728759765625,0,0
2.6098239421844482,-0.0004592046607285738,0.027631347998976707,-0.9321935772895813,0.179661686592858,0.7208158289165725,-0.04860486090183258,0.03937208279967308,-0.2357455939054489,0.0,0.0,-0.9,0.0,0.0002434253692626953,0.0002434253692626953,0.001447439193725586,0,0
2.6199474334716797,0.0017864209366962314,0.028915459290146828,-0.932475209236145,0.17272119837540317,0.7210468926924941,-0.046768397092819214,0.0408673956990242,-0.22949598729610443,0.0,0.0,-0.9,0.0,0.00024366378784179688,0.00024366378784179688,0.001638174057006836,0,0
2.62972092628479,0.002878983039408922,0.029530774801969528,-0.9325189590454102,0.16931259841921117,0.7212601978057868,-0.04495999217033386,0.04227316379547119,-0.22383828461170197,0.0,0.0,-0.9,0.0,0.000225067138671875,0.000225067138671875,0.0014832019805908203,0,0
2.640178680419922,0.00395182566717267,0.030128296464681625,-0.9325000047683716,0.1659448059414971,0.7214608176900467,-0.04316079989075661,0.043587543070316315,-0.21861134469509125,0.0,0.0,-0.9,0.0,0.00025463104248046875,0.00025463104248046875,0.0016226768493652344,0,0
2.649977684020996,0.005005290731787682,0.03070794604718685,-0.9324524402618408,0.16261411841417947,0.7216516521616688,-0.041354700922966,0.04480254650115967,-0.21370118856430054,0.0,0.0,-0.9,0.0,0.0002810955047607422,0.0002810955047607422,0.0020661354064941406,0,0
